
[
  {"_key": "IsabelHidalgoMartinez",
    "name": "Isabel Hidalgo Martinez",
    "age": 25,
    "traits": ["Y","PE","UU","HL"],
    "latitude_deg": 41.645955,
    "longitude_deg": -4.715777
  },
  {"_key": "JavierPerezRodriguez",
    "name": "Javier Perez Rodriguez",
    "age": 10,
    "traits": ["C","E","UU","HL"],
    "latitude_deg": 46.163969,
    "longitude_deg": -1.137592
  },
  {"_key": "EvaSandeMartin",
    "name": "Eva Sande Martin",
    "age": 20,
    "traits": ["Y","B","U","GC","S"],
    "latitude_deg": 53.072856,
    "longitude_deg": 8.806992
  },
  {"_key": "PepaDobaldoSalnes",
    "name": "Pepa Dobal do Salnes",
    "age": 30,
    "traits": ["Y","FC","U","PC","HL"],
    "latitude_deg": 41.635044,
    "longitude_deg": 13.325803
  },
  {"_key": "FranciscoGruber",
    "name": "Francisco Gruber",
    "age": 68,
    "traits": ["O","E","UU","S"],
    "latitude_deg": 51.501292,
    "longitude_deg": -0.093301
  },
  {"_key": "KevinPeetersDubois",
    "name": "Kevin Peeters Dubois",
    "age": 72,
    "traits": ["O","PE","S"],
    "latitude_deg": 44.442028,
    "longitude_deg": 20.695139
  },
  {"_key": "OlgaIvanovPetrov",
    "name": "Olga Ivanov Petrov",
    "age": 40,
    "traits": ["Y","B","U","HL"],
    "latitude_deg": 56.795806,
    "longitude_deg": 44.506348
  },
  {"_key": "EmmaRodgersStone",
    "name": "Emma Rodgers Stone",
    "age": 37,
    "traits": ["Y","E","UU","HL"],
    "latitude_deg": 50.850376,
    "longitude_deg": 5.717063
  },
  {"_key": "OliverJimenezGarcia",
    "name": "Oliver Jimenez Garcia",
    "age": 9,
    "traits": ["C","FC","UU","S"],
    "latitude_deg": 59.269332,
    "longitude_deg": 15.213165
  },
  {"_key": "AnneSmithMiller",
    "name": "Anne Smith Miller",
    "age": 7,
    "traits": ["C","PE","HL"],
    "latitude_deg": 39.918190,
    "longitude_deg": -8.627959
  }
]